[{"Name": "Garda Station", "Address": "Rathmines Garda Station, 196 Rathgar Rd, Rathmines, Dublin 6, D06 YW20, Ireland", "Location": {"lat": 53.321372, "lng": -6.266957}, "Place ID": "ChIJkzEZBQMMZ0gRyDzOUR_NKnI"}, {"Name": "District Garda Station", "Address": "41 Kevin Street Upper, Dublin, Ireland", "Location": {"lat": 53.33835699999999, "lng": -6.269436799999999}, "Place ID": "ChIJjU7DOyEMZ0gR9Erx_n6dSNw"}, {"Name": "Garda Station", "Address": "43 Donnybrook Rd, Dublin 4, D04 XC78, Ireland", "Location": {"lat": 53.3217289, "lng": -6.235786399999999}, "Place ID": "ChIJofWgOrYOZ0gRf5vKn4AZE5Q"}, {"Name": "Garda Bureau Of Community Engagement, Garda HQ", "Address": "Harcourt St, Saint Kevin's, Dublin, Ireland", "Location": {"lat": 53.3341984, "lng": -6.2631532}, "Place ID": "ChIJTf8EJqAOZ0gRI-xHnlGxSzE"}, {"Name": "Garda Station", "Address": "57 Irishtown Rd, Dublin, D04 CA43, Ireland", "Location": {"lat": 53.33810920000001, "lng": -6.2229388}, "Place ID": "ChIJz_aDx-cOZ0gRP9HIWakbu6w"}, {"Name": "An Garda S\u00edoch\u00e1na Headquarters", "Address": "Phoenix Park, Saint James' (part of Phoenix Park), Dublin, D08 HN3X, Ireland", "Location": {"lat": 53.35444769999999, "lng": -6.3018583}, "Place ID": "ChIJU5__1koMZ0gRXUcnK3PKof0"}, {"Name": "Garda National Protective Services Bureau", "Address": "Unnamed Road, South, East Inner City, Dublin, Ireland", "Location": {"lat": 53.3340844, "lng": -6.263381}, "Place ID": "ChIJ4x4aGR8PZ0gR3vi8KIn-cPU"}, {"Name": "Garda Siochana Inspectorate", "Address": "87 St Stephen's Green, Saint Kevin's, Dublin, D02 K230, Ireland", "Location": {"lat": 53.3368781, "lng": -6.2605292}, "Place ID": "ChIJQWhgJJ8OZ0gRnEOn79H7AoM"}, {"Name": "Garda Station", "Address": "30/32 Terenure Rd W, Terenure, Dublin 6W, Co. Dublin, D6W H262, Ireland", "Location": {"lat": 53.3098682, "lng": -6.287828699999999}, "Place ID": "ChIJRVjIb3UMZ0gRwSLqOujWHkE"}, {"Name": "The Garda Museum", "Address": "Dublin Castle, Dublin 2, Ireland", "Location": {"lat": 53.34362119999999, "lng": -6.2660838}, "Place ID": "ChIJhxlJcp0OZ0gRf2vHR-DpqLM"}, {"Name": "Garda Station", "Address": "4-6, 4-6 Store St, Mountjoy, Dublin 1, D01 W773, Ireland", "Location": {"lat": 53.35038789999999, "lng": -6.2523103}, "Place ID": "ChIJtf6m4I4OZ0gRvh1bG4ObpTE"}, {"Name": "Pearse Street Garda Station", "Address": "1-6 Pearse St, Dublin 2, D02 W289, Ireland", "Location": {"lat": 53.3456537, "lng": -6.256214300000001}, "Place ID": "ChIJvxx7M4UOZ0gRphQzDC9OOvg"}, {"Name": "Garda Station", "Address": "28/30 Chancery St, Smithfield, Dublin 7, D07 E424, Ireland", "Location": {"lat": 53.3470716, "lng": -6.274398199999999}, "Place ID": "ChIJ50sQ3CgMZ0gRdwDCaMXjU8E"}, {"Name": "Garda Station", "Address": "Sundrive Garda Station, 110 Crumlin Rd, Crumlin, Dublin 12, Ireland", "Location": {"lat": 53.33017049999999, "lng": -6.2986404}, "Place ID": "ChIJUQx_MrINZ0gR4YZAOCcZXdY"}, {"Name": "Garda National Immigration Bureau", "Address": "13/14 Burgh Quay, Dublin 2, Ireland", "Location": {"lat": 53.3473339, "lng": -6.2561597}, "Place ID": "ChIJVZKNaoUOZ0gRFQncsN2GqTY"}, {"Name": "Garda Station", "Address": "Butterfield Ave, Rathfarnham, Dublin, Ireland", "Location": {"lat": 53.2974311, "lng": -6.2885678}, "Place ID": "ChIJl9xuBpMLZ0gRetk45N-Iy3M"}, {"Name": "Garda Station", "Address": "High Road, Kilmainham Ln, Kilmainham, Dublin 8, Ireland", "Location": {"lat": 53.3419987, "lng": -6.3045819}, "Place ID": "ChIJf1MblUUMZ0gR2YICFeQ-PGk"}, {"Name": "Dundrum Garda Station", "Address": "Kilmacud Rd Upper, Dundrum, Dublin, Ireland", "Location": {"lat": 53.2894507, "lng": -6.2424607}, "Place ID": "ChIJeUmiRhMJZ0gRtFuqKYANTVc"}, {"Name": "Garda S\u00edoch\u00e1na Memorial Garden", "Address": "Dame St, Dublin Southside, Dublin, Ireland", "Location": {"lat": 53.34275359999999, "lng": -6.2665769}, "Place ID": "ChIJXWrcdp0OZ0gRV3USD-MfXDU"}, {"Name": "Fitzgibbon Street Garda Station", "Address": "23-28 Fitzgibbon St, Mountjoy, Dublin, D01 XT54, Ireland", "Location": {"lat": 53.3579307, "lng": -6.2554154}, "Place ID": "ChIJId2guGIOZ0gR_Zno1C57wO0"}]