[{"Name": "(Old) Meath Hospital", "Address": "Old meath hospital, Heytesbury St, Dublin, Ireland", "Location": {"lat": 53.3356461, "lng": -6.2692559}, "Place ID": "ChIJPb9x1SANZ0gRxNIdD5gAWqU"}, {"Name": "Mount Carmel Community Hospital", "Address": "Mount Carmel Community Hospital, Braemor Park, Dublin 14, D14 A5R2, Ireland", "Location": {"lat": 53.3044537, "lng": -6.2650618}, "Place ID": "ChIJ7-8zlfwLZ0gRu09Psd4LLb0"}, {"Name": "Day Hospital", "Address": "The Royal Hospital Donnybrook, Morehampton Rd, Dublin, 4, Ireland", "Location": {"lat": 53.3253792, "lng": -6.248780099999999}, "Place ID": "ChIJ7eezGJ8PZ0gRepdNr8lLJ94"}, {"Name": "The National Maternity Hospital", "Address": "Holles St, Dublin, D02 YH21, Ireland", "Location": {"lat": 53.3398749, "lng": -6.245535599999999}, "Place ID": "ChIJOXUMIZQOZ0gRAYSeV0PwjJI"}, {"Name": "The Royal Hospital Donnybrook", "Address": "Morehampton Rd, Donnybrook, Dublin, D04 HX40, Ireland", "Location": {"lat": 53.3250523, "lng": -6.248124499999999}, "Place ID": "ChIJe7UQoboOZ0gR8f3NLxa3DVw"}, {"Name": "The Hospitality Trust", "Address": "68 Pembroke Rd, Ballsbridge, Dublin 4, D04 A3T6, Ireland", "Location": {"lat": 53.3326416, "lng": -6.2390479}, "Place ID": "ChIJsbJKc78OZ0gRz1PfsqilDSs"}, {"Name": "St. Vincent's University Hospital", "Address": "Elm Park, Dublin 4, D04 T6F4, Ireland", "Location": {"lat": 53.3168588, "lng": -6.2123275}, "Place ID": "ChIJQUx3iDQPZ0gRiobNJV3XG0U"}, {"Name": "St. Luke's Hospital", "Address": "St Luke's Hospital, Highfield Rd, Dublin 6, D06 HH36, Ireland", "Location": {"lat": 53.31111989999999, "lng": -6.2686449}, "Place ID": "ChIJJ7UupPgLZ0gRayhP6NxCB1w"}, {"Name": "Saint James's Hospital - Mortuary", "Address": "The Liberties, Dublin, Ireland", "Location": {"lat": 53.3419677, "lng": -6.292322599999999}, "Place ID": "ChIJ-eXBUzgMZ0gRnqURUsu5DYE"}, {"Name": "The Mater Misericordiae University Hospital", "Address": "Eccles St, Dublin 7, D07 R2WY, Ireland", "Location": {"lat": 53.3597398, "lng": -6.267096899999999}, "Place ID": "ChIJ22_b6X4OZ0gRQm9hCo0wSog"}, {"Name": "St James's Hospital", "Address": "James St, Saint James' (part of Phoenix Park), Dublin 8, D08 NHY1, Ireland", "Location": {"lat": 53.339302, "lng": -6.296513099999999}, "Place ID": "ChIJe9ijRjgMZ0gRxm3aoBkMbTY"}, {"Name": "St Vincent's University Hospital - Emergency Department", "Address": "Elm Park, Dublin 4, DO4 T6F4, Ireland", "Location": {"lat": 53.3171911, "lng": -6.2148089}, "Place ID": "ChIJORrFa9MOZ0gRo0F-5DTMWG8"}, {"Name": "Foundling Hospital", "Address": "1 Mount Brown, Saint James' (part of Phoenix Park), Dublin 8, D08 X8Y2, Ireland", "Location": {"lat": 53.3420424, "lng": -6.295784299999999}, "Place ID": "ChIJx4hCikcMZ0gRf66HznXMEn4"}, {"Name": "Coombe Women's Hospital", "Address": "Cork St, Saint James' (part of Phoenix Park), Dublin, D08 XW7X, Ireland", "Location": {"lat": 53.3346666, "lng": -6.288554899999999}, "Place ID": "ChIJvw74OkEMZ0gRjnITwLSsALY"}, {"Name": "Saint James's Hospital - Administration", "Address": "Saint James' (part of Phoenix Park), Dublin, Ireland", "Location": {"lat": 53.34019619999999, "lng": -6.298119}, "Place ID": "ChIJs7LmBEcMZ0gRPEAvYADVpeE"}, {"Name": "Fatma hospital", "Address": "Rotunda, Irishtown, Co. Dublin, Ireland", "Location": {"lat": 53.35281610000001, "lng": -6.2647498}, "Place ID": "ChIJ41N2GIEOZ0gRNef7aU23mp4"}, {"Name": "Rotunda Hospital", "Address": "Parnell Square E, Rotunda, Dublin 1, D01 P5W9, Ireland", "Location": {"lat": 53.3530919, "lng": -6.2631779}, "Place ID": "ChIJ0VEBzIYOZ0gRSW5TtAcfXHI"}, {"Name": "Clontarf Hospital", "Address": "Clontarf Hospital, Blackheath Park, Clontarf, Co. Dublin, D03 AY95, Ireland", "Location": {"lat": 53.3669764, "lng": -6.201621299999999}, "Place ID": "ChIJTTcxnKUPZ0gRwKOVBlzJmHI"}, {"Name": "Charlemont Building", "Address": "South-East Inner City, Dublin, Ireland", "Location": {"lat": 53.3305379, "lng": -6.2617536}, "Place ID": "ChIJycWn4KAOZ0gR3mSmK_94U5E"}, {"Name": "Hospital 5 Unit 2", "Address": "Ushers, Dublin, Ireland", "Location": {"lat": 53.339279, "lng": -6.2923714}, "Place ID": "ChIJcWHCEogNZ0gRPZsKm6UHq6E"}]