[{"Name": "No 1. Donnybrook Fire Station", "Address": "4 Donnybrook Rd, Dublin, D04 W6R9, Ireland", "Location": {"lat": 53.3226456, "lng": -6.237031399999999}, "Place ID": "ChIJf-0JTrYOZ0gRe7GBmBue5Ew"}, {"Name": "Dublin Fire Brigade HQ", "Address": "165-169 Townsend St, Dublin 2, D02 RY99, Ireland", "Location": {"lat": 53.3457585, "lng": -6.2540116}, "Place ID": "ChIJOfvh8o8OZ0gRlg8UHirNdyQ"}, {"Name": "Dolphin's Barn Fire Station - Dublin Fire Brigade", "Address": "Parnell Rd, Drimnagh, Dolphins Barn, Co. Dublin, D12 C520, Ireland", "Location": {"lat": 53.3315758, "lng": -6.2926882}, "Place ID": "ChIJSxKNORUMZ0gR6UVZvu_jukI"}, {"Name": "Rathfarnham Fire Station - Dublin Fire Brigade", "Address": "316 Nutgrove Ave, Rathfarnham, Dublin, D14 F602, Ireland", "Location": {"lat": 53.2918063, "lng": -6.264499}, "Place ID": "ChIJ-Xm6QucLZ0gRCHYMfk4h-zA"}, {"Name": "Phibsborough Fire Station - Dublin Fire Brigade", "Address": "Phibsborough Rd, Phibsborough, Dublin, D07 X3TV, Ireland", "Location": {"lat": 53.3577093, "lng": -6.2739978}, "Place ID": "ChIJg2fnD9UNZ0gRMllZcS24qOk"}, {"Name": "No 4. North Strand Fire Station", "Address": "North Strand, Dublin 3, Ireland", "Location": {"lat": 53.359809, "lng": -6.2392098}, "Place ID": "ChIJ3QuZA18OZ0gRfq1XyWS1niU"}, {"Name": "Dublin Fire Garage", "Address": "4 Stable Ln, Dublin, Ireland", "Location": {"lat": 53.3511628, "lng": -6.2806795}, "Place ID": "ChIJw79vzy0MZ0gRFVCINyJuPls"}, {"Name": "Dun Laoghaire Fire Station - Dublin Fire Brigade", "Address": "Kill Ave, Kill of the Grange, Dublin, A96 A066, Ireland", "Location": {"lat": 53.2817815, "lng": -6.1515412}, "Place ID": "ChIJOSWMN4QIZ0gR300UasPwQ5c"}, {"Name": "Finglas Fire Station - Dublin Fire Brigade", "Address": "Mellowes Ave, Finglas, Dublin, D11 NR22, Ireland", "Location": {"lat": 53.39015029999999, "lng": -6.303394399999999}, "Place ID": "ChIJKYCeCfMNZ0gRVk_ndoUHyvI"}, {"Name": "Kilbarrack Fire Station - Dublin Fire Brigade", "Address": "Kilbarrack Road Kilbarrack, Dublin, D05 WF64, Ireland", "Location": {"lat": 53.39089629999999, "lng": -6.168221099999999}, "Place ID": "ChIJCdWOTYUOZ0gRij0UHAsb8Hw"}, {"Name": "Tallaght Fire Station - Dublin Fire Brigade", "Address": "Belgard Rd, Dublin 22, D22 RD68, Ireland", "Location": {"lat": 53.3073649, "lng": -6.382882599999999}, "Place ID": "ChIJ1e-xz1dzZ0gRk9YMKLT9stU"}, {"Name": "Blanchardstown Fire Station - Dublin Fire Brigade", "Address": "Snugborough Rd, Coolmine, Dublin, D15 ET89, Ireland", "Location": {"lat": 53.3846436, "lng": -6.39587}, "Place ID": "ChIJM9UnMaxyZ0gRfVqoRFxsHOs"}, {"Name": "Leixlip Fire Station", "Address": "Mill Ln, St. Catherine's Park, Leixlip, Co. Kildare, Ireland", "Location": {"lat": 53.36428429999999, "lng": -6.4838385}, "Place ID": "ChIJe9xkND1yZ0gR7RD-KwTQ7RY"}, {"Name": "Bray Fire Station", "Address": "Bray Fire Station, Schools Rd, Bray, Co. Wicklow, A98 XP77, Ireland", "Location": {"lat": 53.1877043, "lng": -6.1234192}, "Place ID": "ChIJr4du1YCoZ0gRMq2HDJ8h4mk"}, {"Name": "Swords Fire Station - Dublin Fire Brigade", "Address": "Balheary Rd, Castlefarm, Swords, Co. Dublin, K67 R927, Ireland", "Location": {"lat": 53.4644955, "lng": -6.219357899999999}, "Place ID": "ChIJX6v1mukQZ0gRi0psszRPw7A"}, {"Name": "Dublin Airport Fire Station", "Address": "Huntstown, Dublin, Ireland", "Location": {"lat": 53.4271246, "lng": -6.2624486}, "Place ID": "ChIJCXxjh5YRZ0gRpiGZBvodaKE"}, {"Name": "Dunshaughlin Fire Station", "Address": "Main St, Dunshaughlin, Co. Meath, Ireland", "Location": {"lat": 53.51037789999999, "lng": -6.5393672}, "Place ID": "ChIJzUJ6un5pZ0gRmfZkpOIXLcY"}, {"Name": "Blessington Fire Station", "Address": "Naas Rd, Santryhill, Blessington, Co. Wicklow, Ireland", "Location": {"lat": 53.1761827, "lng": -6.5306489}, "Place ID": "ChIJ6zfn0yadZ0gR5eNwESl4v08"}, {"Name": "Ashbourne Fire Station", "Address": "Rath, Ashbourne, Co. Meath, Ireland", "Location": {"lat": 53.5205622, "lng": -6.411096}, "Place ID": "ChIJgX3yytcUZ0gRiCQL_-czsC8"}, {"Name": "Fire Station, stop 196", "Address": "Broadstone, Phibsborough, Co. Dublin, Ireland", "Location": {"lat": 53.3568894, "lng": -6.273763}, "Place ID": "ChIJnXy3I9UNZ0gR3mHa17WiQW8"}]