[{"Name": "St. Jude's GAA Club", "Address": "Templeogue, Dublin, Ireland", "Location": {"lat": 53.296636, "lng": -6.3274927}, "Place ID": "ChIJOzTXKXALZ0gRHu0gq9pA1pU"}, {"Name": "Good Counsel Liffey Gaels GAA & Camogie Club", "Address": "Sarsfield Rd, Kilmainham, Dublin, Ireland", "Location": {"lat": 53.34282959999999, "lng": -6.326925999999999}, "Place ID": "ChIJfxgvjvkMZ0gRrZRIz9GMd4Y"}, {"Name": "Dublin GAA", "Address": "Parnell Park, Clancarthy Rd, Clontarf West, Donnycarney, Co. Dublin, D05 X971, Ireland", "Location": {"lat": 53.3736573, "lng": -6.2182667}, "Place ID": "ChIJv6_FLbMPZ0gR3wZslPHxzKs"}, {"Name": "Good Counsel Liffey Gaels GAA & Camogie Club", "Address": "Davitt Rd, Goldenbridge, Drimnagh, Dublin 12, Ireland", "Location": {"lat": 53.3353966, "lng": -6.306936100000001}, "Place ID": "ChIJl7wzJUMMZ0gRNtsxUac7rE0"}, {"Name": "Naomh Barr\u00f3g GAA Club", "Address": "Kilbarrack Parade, Kilbarrack Upper, Dublin 5, Ireland", "Location": {"lat": 53.390612, "lng": -6.151947799999999}, "Place ID": "ChIJP0sjSlsFZ0gRZ0SC13CS4ns"}, {"Name": "Ranelagh Gaels GAA", "Address": "Beachwood Hall, Mountain View Road, Ranelagh, Co. Dublin, Ireland", "Location": {"lat": 53.3187067, "lng": -6.251839599999999}, "Place ID": "ChIJrZTFKqwOZ0gRKD4IprJmenU"}, {"Name": "Innisfails GAA club", "Address": "17 Carr's Lane, Balgriffin, Dublin, Ireland", "Location": {"lat": 53.4110871, "lng": -6.1838235}, "Place ID": "ChIJgXP35wQQZ0gRnUJGa7fjJ60"}, {"Name": "St James Gaels/An Caisle\u00e1n GAA Club", "Address": "Drimnagh Castle, Long Mile Rd, Walkinstown, Dublin 12, Ireland", "Location": {"lat": 53.3245869, "lng": -6.332656399999999}, "Place ID": "ChIJc2WbzssNZ0gRM1TgJ3vWElQ"}, {"Name": "Erins Isle GAA Club", "Address": "Farnham Dr, Finglas, Dublin, D11 RRK6, Ireland", "Location": {"lat": 53.3848948, "lng": -6.297498699999999}, "Place ID": "ChIJKdevuO0NZ0gR81_7oT92Bcw"}, {"Name": "Trinity Gaels GAA Club", "Address": "Drumnigh Rd, Drumnigh, Dublin, Ireland", "Location": {"lat": 53.4140655, "lng": -6.1652273}, "Place ID": "ChIJz2lftqgaZ0gRKcxH-gLXcEo"}, {"Name": "Thomas Davis GAA Club", "Address": "Kiltipper Rd, Tallaght, Dublin, D24 VE22, Ireland", "Location": {"lat": 53.27257609999999, "lng": -6.3612489}, "Place ID": "ChIJsaEW6CwLZ0gRh6orfI8bGNg"}, {"Name": "St. Vincent's GAA Club", "Address": "Grace Park, Dublin, Ireland", "Location": {"lat": 53.3740494, "lng": -6.2301514}, "Place ID": "ChIJL_GSMk8OZ0gRmmaEDYG9IW4"}, {"Name": "Kevins GAA Club", "Address": "Donore Ave, Saint Catherine's, Dublin, Ireland", "Location": {"lat": 53.33553029999999, "lng": -6.283507699999999}, "Place ID": "ChIJHykQfz0MZ0gREvADqBW0ALw"}, {"Name": "Garda Westmanstown Gaels GAA Club", "Address": "Westmanstown Rd, Westmanstown, Dublin 15, D15 Y2DH, Ireland", "Location": {"lat": 53.37845799999999, "lng": -6.4438146}, "Place ID": "ChIJ-40kIIhyZ0gRK_M-LIvYB20"}, {"Name": "St. Oliver Plunkett Eoghan Ruadh GAA Club (Clubhouse and Martin Savage Park)", "Address": "74 Glenarriff Rd, Ashtown, Dublin, Ireland", "Location": {"lat": 53.3739102, "lng": -6.3243977}, "Place ID": "ChIJT74EHKINZ0gRE9kRMDWHt6E"}, {"Name": "St. Mark's GAA Club", "Address": "McGee Park, Cookstown Rd, Springfield, Dublin 24, Ireland", "Location": {"lat": 53.2896402, "lng": -6.3883888}, "Place ID": "ChIJ_7WmULl0Z0gR465E8CgQ_gc"}, {"Name": "Scoil Ui Chonaill GAA Club", "Address": "95 Clontarf Rd, Clontarf East, Dublin 3, D03 F862, Ireland", "Location": {"lat": 53.3611602, "lng": -6.2074861}, "Place ID": "ChIJeWZ3kKkPZ0gRiNqQp2JJucU"}, {"Name": "Templeogue Synge Street GAA Club", "Address": "39, 41 Crumlin Rd, Drimnagh, Dublin 12, D12 E377, Ireland", "Location": {"lat": 53.330898, "lng": -6.295789099999999}, "Place ID": "ChIJv5Ji52oMZ0gRMzeol9OHzGA"}, {"Name": "Naomh \u00d3laf GAA Club", "Address": "Holly Ave, Stillorgan Business Park, Sandyford, Dublin, Ireland", "Location": {"lat": 53.2804371, "lng": -6.2210145}, "Place ID": "ChIJz4S2GFMJZ0gRHlvoJfFtI7c"}, {"Name": "Parnell's GAA Club", "Address": "30 Main Street, Coolock, Dublin 5, D05 H2W0, Ireland", "Location": {"lat": 53.38839, "lng": -6.204957599999999}, "Place ID": "ChIJCbo0lMMPZ0gRBUcDUy0-xxo"}]